{"type": "FeatureCollection", "features": [{"type": "Feature", "geometry": {"type": "Point", "coordinates": [-102.3385, 21.95485]}, "properties": {"image": "icogas.png", "description": "diesel: 21.18 - Actualizado el 2019-01-21 15:00:00", "title": "Servicio Independencia S.A. de C.V."}}, {"type": "Feature", "geometry": {"type": "Point", "coordinates": [-102.3437, 21.9523]}, "properties": {"image": "icogas.png", "description": "diesel: 21.18 - Actualizado el 2019-01-21 15:00:00", "title": "Super Servicio Bonaterra, S.A. de C.V."}}, {"type": "Feature", "geometry": {"type": "Point", "coordinates": [-102.3211, 21.94962]}, "properties": {"image": "icogas.png", "description": "diesel: 21.27 - Actualizado el 2019-01-16 00:00:00", "title": "SERVICIOS GASOLINEROS DE MEXICO, S.A. DE C.V."}}, {"type": "Feature", "geometry": {"type": "Point", "coordinates": [-102.3334, 21.94981]}, "properties": {"image": "icogas.png", "description": "diesel: 21.27 - Actualizado el 2019-01-16 00:00:00", "title": "SERVICIOS GASOLINEROS DE MEXICO, S.A. DE C.V."}}, {"type": "Feature", "geometry": {"type": "Point", "coordinates": [-102.3237, 21.95089]}, "properties": {"image": "icogas.png", "description": "diesel: 21.45 - Actualizado el 2019-01-26 00:05:00", "title": "RED SIGLO XXI SA DE CV"}}, {"type": "Feature", "geometry": {"type": "Point", "coordinates": [-102.3237, 21.95089]}, "properties": {"image": "icogas.png", "description": "premium: 20.85 - Actualizado el 2019-01-01 00:05:00", "title": "RED SIGLO XXI SA DE CV"}}, {"type": "Feature", "geometry": {"type": "Point", "coordinates": [-102.3339, 21.94994]}, "properties": {"image": "icogas.png", "description": "premium: 21.01 - Actualizado el 2019-01-22 00:02:00", "title": "Estacion de Servicios Corral de Barrancos SA de CV"}}, {"type": "Feature", "geometry": {"type": "Point", "coordinates": [-102.3385, 21.95485]}, "properties": {"image": "icogas.png", "description": "premium: 21.1 - Actualizado el 2019-01-25 15:00:00", "title": "Servicio Independencia S.A. de C.V."}}, {"type": "Feature", "geometry": {"type": "Point", "coordinates": [-102.3376, 21.95503]}, "properties": {"image": "icogas.png", "description": "premium: 21.1 - Actualizado el 2019-01-25 15:00:00", "title": "Super Servicio Bonaterra, S.A. de C.V."}}, {"type": "Feature", "geometry": {"type": "Point", "coordinates": [-102.3437, 21.9523]}, "properties": {"image": "icogas.png", "description": "premium: 21.1 - Actualizado el 2019-01-25 15:00:00", "title": "Super Servicio Bonaterra, S.A. de C.V."}}, {"type": "Feature", "geometry": {"type": "Point", "coordinates": [-102.3237, 21.95089]}, "properties": {"image": "icogasverde.png", "description": "regular: 19.43 - Actualizado el 2019-01-05 00:05:00", "title": "RED SIGLO XXI SA DE CV"}}, {"type": "Feature", "geometry": {"type": "Point", "coordinates": [-102.3498, 21.95799]}, "properties": {"image": "icogas.png", "description": "regular: 19.68 - Actualizado el 2019-01-25 00:00:00", "title": "SERVICIOS ENERGETICOS LOS CUARTOS, S.A DE C.V."}}, {"type": "Feature", "geometry": {"type": "Point", "coordinates": [-102.3211, 21.94962]}, "properties": {"image": "icogas.png", "description": "regular: 19.72, premium: 20.99 - Actualizado el 2019-01-26 00:00:00", "title": "SERVICIOS GASOLINEROS DE MEXICO, S.A. DE C.V."}}, {"type": "Feature", "geometry": {"type": "Point", "coordinates": [-102.3334, 21.94981]}, "properties": {"image": "icogas.png", "description": "regular: 19.72, premium: 20.99 - Actualizado el 2019-01-26 00:00:00", "title": "SERVICIOS GASOLINEROS DE MEXICO, S.A. DE C.V."}}, {"type": "Feature", "geometry": {"type": "Point", "coordinates": [-102.3385, 21.95485]}, "properties": {"image": "icogas.png", "description": "regular: 19.79 - Actualizado el 2019-01-24 16:00:00", "title": "Servicio Independencia S.A. de C.V."}}, {"type": "Feature", "geometry": {"type": "Point", "coordinates": [-102.3376, 21.95503]}, "properties": {"image": "icogas.png", "description": "regular: 19.8 - Actualizado el 2019-01-24 16:00:00", "title": "Super Servicio Bonaterra, S.A. de C.V."}}, {"type": "Feature", "geometry": {"type": "Point", "coordinates": [-102.3437, 21.9523]}, "properties": {"image": "icogas.png", "description": "regular: 19.8 - Actualizado el 2019-01-24 16:00:00", "title": "Super Servicio Bonaterra, S.A. de C.V."}}, {"type": "Feature", "geometry": {"type": "Point", "coordinates": [-102.3339, 21.94994]}, "properties": {"image": "icogas.png", "description": "regular: 19.82 - Actualizado el 2019-01-24 00:02:00", "title": "Estacion de Servicios Corral de Barrancos SA de CV"}}, {"type": "Feature", "geometry": {"type": "Point", "coordinates": [-102.3406, 21.97262]}, "properties": {"image": "icogas.png", "description": "regular: 19.82 - Actualizado el 2019-01-26 00:00:00", "title": "SERVICIO GERO, SA DE CV"}}]}