{"type": "FeatureCollection", "features": [{"geometry": {"type": "Point", "coordinates": [-102.3053, 21.89668]}, "type": "Feature", "properties": {"Nombre": "SERVICIO AVENIDA, S.A. DE C.V.", "regular": "19.37", "Actualizado el": "2019-01-08 14:50:00"}}, {"geometry": {"type": "Point", "coordinates": [-102.3108, 21.90746]}, "type": "Feature", "properties": {"Nombre": "Unidad de Gasolineras, S.A. de C.V.", "regular": "19.34", "Actualizado el": "2019-01-10 00:00:00"}}, {"geometry": {"type": "Point", "coordinates": [-102.3171, 21.8858]}, "type": "Feature", "properties": {"Nombre": "TERCER ANILLO SA DE CV", "regular": "19.49", "Actualizado el": "2019-01-03 00:00:00"}}, {"geometry": {"type": "Point", "coordinates": [-102.3169, 21.90174]}, "type": "Feature", "properties": {"Nombre": "RED SIGLO XXI SA DE CV", "regular": "19.25", "Actualizado el": "2019-01-05 00:05:00"}}, {"geometry": {"type": "Point", "coordinates": [-102.3169, 21.90174]}, "type": "Feature", "properties": {"Nombre": "RED SIGLO XXI SA DE CV", "diesel": "21.17", "Actualizado el": "2018-12-19 00:05:00"}}, {"geometry": {"type": "Point", "coordinates": [-102.318, 21.90923]}, "type": "Feature", "properties": {"Nombre": "OPERADORA DE MINIESTACIONES COMBUSERV, S.A. DE C.V", "regular": "19.39", "Actualizado el": "2019-01-08 00:00:00"}}, {"geometry": {"type": "Point", "coordinates": [-102.313, 21.88589]}, "type": "Feature", "properties": {"Nombre": "SERVICIOS GASOLINEROS DE MEXICO, S.A. DE C.V.", "regular": "19.35", "Actualizado el": "2019-01-10 00:00:00"}}, {"geometry": {"type": "Point", "coordinates": [-102.313, 21.88589]}, "type": "Feature", "properties": {"Nombre": "SERVICIOS GASOLINEROS DE MEXICO, S.A. DE C.V.", "premium": "20.9", "Actualizado el": "2019-01-08 00:00:00"}}, {"geometry": {"type": "Point", "coordinates": [-102.312, 21.89359]}, "type": "Feature", "properties": {"Nombre": "MR SERVICIO, S.A. DE C.V.", "regular": "19.3", "Actualizado el": "2018-12-25 00:00:00"}}, {"geometry": {"type": "Point", "coordinates": [-102.3011, 21.89865]}, "type": "Feature", "properties": {"Nombre": "SERVIGAZ ARBOLEDAS SA DE CV", "premium": "21.04", "Actualizado el": "2019-01-03 00:00:00"}}, {"geometry": {"type": "Point", "coordinates": [-102.3011, 21.89865]}, "type": "Feature", "properties": {"Nombre": "SERVIGAZ ARBOLEDAS SA DE CV", "regular": "19.48", "Actualizado el": "2018-12-27 00:00:00"}}, {"geometry": {"type": "Point", "coordinates": [-102.2976, 21.9075]}, "type": "Feature", "properties": {"Nombre": "ENERGIA Y SERVICIOS TERRA S.A. DE C.V.", "regular": "19.3", "Actualizado el": "2019-01-05 12:10:00"}}, {"geometry": {"type": "Point", "coordinates": [-102.2976, 21.9075]}, "type": "Feature", "properties": {"Nombre": "ENERGIA Y SERVICIOS TERRA S.A. DE C.V.", "diesel": "20.95", "Actualizado el": "2018-12-24 10:55:00"}}]}